[
  {
    "centros_id": "000c",
    "Centro": "Centro Deportivo Municipal  María Jesús Rosa (La Vaguada)",
    "Direccion": "AVENIDA MONFORTE DE LEMOS 38, 28029 MADRID",
    "Latitud": 40.47876758357458,
    "Longitud": -3.7086993281311904,
    "Telefono": "914 800 476",
    "Movilidad": 1,
    "Podotactil": 0,
    "Ind_magnetica": 0,
    "email": "idmlavaguada@madrid.es"
  },
  {
    "centros_id": "001c",
    "Centro": "Centro Deportivo Municipal Alcántara",
    "Direccion": "CALLE ALCANTARA 26, 28006 MADRID",
    "Latitud": 40.42810291538114,
    "Longitud": -3.6737317205040503,
    "Telefono": "917 373 641",
    "Movilidad": 1,
    "Podotactil": 0,
    "Ind_magnetica": 0,
    "email": "alcantara@viding.es"
  },
  {
    "centros_id": "002c",
    "Centro": "Centro Deportivo Municipal Alfredo Goyeneche",
    "Direccion": "CALLE ARROYO DE POZUELO 99, 28023 MADRID",
    "Latitud": 40.45212135012858,
    "Longitud": -3.783283203719198,
    "Telefono": "913 571 228",
    "Movilidad": 1,
    "Podotactil": 0,
    "Ind_magnetica": 0,
    "email": "idmagoyeneche@madrid.es"
  },
  {
    "centros_id": "003c",
    "Centro": "Centro Deportivo Municipal Aluche",
    "Direccion": "AVENIDA DE LAS AGUILAS 14, 28044 MADRID",
    "Latitud": 40.382720517194784,
    "Longitud": -3.773653600881568,
    "Telefono": "917 062 868",
    "Movilidad": 1,
    "Podotactil": 0,
    "Ind_magnetica": 0,
    "email": "idmaluche@madrid.es"
  },
  {
    "centros_id": "004c",
    "Centro": "Centro Deportivo Municipal Antonio Díaz Miguel",
    "Direccion": "CALLE JOAQUIN DICENTA 1, 28029 MADRID",
    "Latitud": 40.471254265861454,
    "Longitud": -3.6953256978963807,
    "Telefono": "913 145 437",
    "Movilidad": 1,
    "Podotactil": 0,
    "Ind_magnetica": 0,
    "email": "idmadm@madrid.es"
  },
  {
    "centros_id": "005c",
    "Centro": "Centro Deportivo Municipal Barajas",
    "Direccion": "AVENIDA LOGROÑO 70, 28042 MADRID",
    "Latitud": 40.46301382809657,
    "Longitud": -3.587693324074623,
    "Telefono": "913 290 602",
    "Movilidad": 1,
    "Podotactil": 0,
    "Ind_magnetica": 0,
    "email": "idmbarajas@madrid.es"
  },
  {
    "centros_id": "006c",
    "Centro": "Centro Deportivo Municipal Barceló",
    "Direccion": "MERCADO BARCELO 6, 28004 MADRID",
    "Latitud": 40.42671069347762,
    "Longitud": -3.6988277636112716,
    "Telefono": "910 285 389",
    "Movilidad": 0,
    "Podotactil": 0,
    "Ind_magnetica": 0,
    "email": "infobarcelo@forus.es"
  },
  {
    "centros_id": "007c",
    "Centro": "Centro Deportivo Municipal Blanca Fernández Ochoa (La Mina)",
    "Direccion": "CALLE MONSEÑOR OSCAR ROMERO 41, 28025 MADRID",
    "Latitud": 40.38234955664604,
    "Longitud": -3.746482524823702,
    "Telefono": "914 661 278                                                                     \n914 661 732",
    "Movilidad": 1,
    "Podotactil": 0,
    "Ind_magnetica": 0,
    "email": "idmlamina@madrid.es"
  },
  {
    "centros_id": "008c",
    "Centro": "Centro Deportivo Municipal Canódromo",
    "Direccion": "CALLE VIA CARPETANA 57, 28047 MADRID",
    "Latitud": 40.39801608457685,
    "Longitud": -3.7352725040539525,
    "Telefono": 689442120,
    "Movilidad": 1,
    "Podotactil": 0,
    "Ind_magnetica": 0,
    "email": "No consta"
  },
  {
    "centros_id": "009c",
    "Centro": "Centro Deportivo Municipal Casa de Campo",
    "Direccion": "PASEO PUERTA DEL ANGEL 7, 28011 MADRID",
    "Latitud": 40.41612628789201,
    "Longitud": -3.733536573641621,
    "Telefono": "914 630 050 / 914 649 889",
    "Movilidad": 1,
    "Podotactil": 0,
    "Ind_magnetica": 0,
    "email": "idmccampo@madrid.es"
  },
  {
    "centros_id": "0010c",
    "Centro": "Centro Deportivo Municipal Centro Integrado Arganzuela",
    "Direccion": "CALLE CANARIAS 17, 28045 MADRID",
    "Latitud": 40.40207279862862,
    "Longitud": -3.6955325387824014,
    "Telefono": "915 273 938 - Taquilla 915 063 616",
    "Movilidad": 1,
    "Podotactil": 0,
    "Ind_magnetica": 0,
    "email": "idmestacionsur@madrid.es"
  },
  {
    "centros_id": "0011c",
    "Centro": "Centro Deportivo Municipal Cerro Almodóvar",
    "Direccion": "CALLE CERRO DE ALMODOVAR 9, 28007 MADRID",
    "Latitud": 40.38168570611539,
    "Longitud": -3.602336460953483,
    "Telefono": "913 314 047",
    "Movilidad": 1,
    "Podotactil": 0,
    "Ind_magnetica": 0,
    "email": "idmcalmodovar@madrid.es"
  },
  {
    "centros_id": "0012c",
    "Centro": "Centro Deportivo Municipal Chamartín",
    "Direccion": "AVENIDA PIO XII 2, 28016 MADRID",
    "Latitud": 40.46113349830694,
    "Longitud": -3.676208246061129,
    "Telefono": "91 359 33 39",
    "Movilidad": 1,
    "Podotactil": 0,
    "Ind_magnetica": 0,
    "email": "infochamartin@forus.es"
  },
  {
    "centros_id": "0013c",
    "Centro": "Centro Deportivo Municipal Circuito BMX",
    "Direccion": "CALLE EMBAJADORES 316, 28045 MADRID",
    "Latitud": 40.385539006771225,
    "Longitud": -3.6898722494765366,
    "Telefono": "915 279 704",
    "Movilidad": 0,
    "Podotactil": 0,
    "Ind_magnetica": 0,
    "email": "idmcircuitobmx@madrid.es"
  },
  {
    "centros_id": "0014c",
    "Centro": "Centro Deportivo Municipal Ciudad de los Poetas",
    "Direccion": "CALLE ANTONIO MACHADO 12, 28035 MADRID",
    "Latitud": 40.465920678080856,
    "Longitud": -3.7189325594658573,
    "Telefono": "91 373 27 39",
    "Movilidad": 0,
    "Podotactil": 0,
    "Ind_magnetica": 0,
    "email": "idmcpoetas@madrid.es"
  },
  {
    "centros_id": "0015c",
    "Centro": "Centro Deportivo Municipal Concepción",
    "Direccion": "CALLE JOSE DEL HIERRO 5, 28027 MADRID",
    "Latitud": 40.43725652047252,
    "Longitud": -3.6484498132292025,
    "Telefono": "914 039 020                                                                                     \n914 039 021",
    "Movilidad": 1,
    "Podotactil": 0,
    "Ind_magnetica": 0,
    "email": "idmconcepcion@madrid.es"
  },
  {
    "centros_id": "0016c",
    "Centro": "Centro Deportivo Municipal Daoíz y Velarde 1",
    "Direccion": "PLAZA DAOÍZ Y VELARDE 5, 28007 MADRID",
    "Latitud": 40.40236990974131,
    "Longitud": -3.6772808932293217,
    "Telefono": "914 338 950                                                                                  \n914 338 770",
    "Movilidad": 1,
    "Podotactil": 1,
    "Ind_magnetica": 1,
    "email": "idmdvelarde@madrid.es"
  },
  {
    "centros_id": "0017c",
    "Centro": "Centro Deportivo Municipal Daoíz y Velarde 2",
    "Direccion": "CALLE ALBERCHE 21, 28007 MADRID",
    "Latitud": 40.400799189712316,
    "Longitud": -3.6778902970366896,
    "Telefono": "91 433 27 58",
    "Movilidad": 1,
    "Podotactil": 0,
    "Ind_magnetica": 0,
    "email": "secretaria@fmkarate.com"
  },
  {
    "centros_id": "0018c",
    "Centro": "Centro Deportivo Municipal El Espinillo",
    "Direccion": "CARRETERA VILLAVERDE A VALLECAS 19, 28041 MADRID",
    "Latitud": 40.35634193991933,
    "Longitud": -3.686595141820635,
    "Telefono": "913 603 265",
    "Movilidad": 1,
    "Podotactil": 0,
    "Ind_magnetica": 0,
    "email": "idmespinillo@madrid.es"
  },
  {
    "centros_id": "0019c",
    "Centro": "Centro Deportivo Municipal El Olivillo",
    "Direccion": "CALLE OLIVILLO 4, 28011 MADRID",
    "Latitud": 40.40652470221465,
    "Longitud": -3.745889233801086,
    "Telefono": "914 790 212",
    "Movilidad": 0,
    "Podotactil": 0,
    "Ind_magnetica": 0,
    "email": "idmolivillo@madrid.es"
  },
  {
    "centros_id": "0020c",
    "Centro": "Centro Deportivo Municipal Entrevías",
    "Direccion": "RONDA SUR 4, 28053 MADRID",
    "Latitud": 40.378413212706285,
    "Longitud": -3.674532317137481,
    "Telefono": "917 854 214 / 917 867 064",
    "Movilidad": 1,
    "Podotactil": 0,
    "Ind_magnetica": 0,
    "email": "idmentrevias@madrid.es"
  },
  {
    "centros_id": "0021c",
    "Centro": "Centro Deportivo Municipal Escuelas de San Antón",
    "Direccion": "CALLE FARMACIA 13, 28004 MADRID",
    "Latitud": 40.42382670120857,
    "Longitud": -3.699010103263697,
    "Telefono": "918 289 006",
    "Movilidad": 1,
    "Podotactil": 0,
    "Ind_magnetica": 0,
    "email": "info@cdmescuelassananton.com"
  },
  {
    "centros_id": "0022c",
    "Centro": "Centro Deportivo Municipal Estanque del Retiro",
    "Direccion": "PASEO COLOMBIA 2, 28009 MADRID",
    "Latitud": 40.418436005960814,
    "Longitud": -3.6845031319515718,
    "Telefono": "915 744 024                      \n915 571 994",
    "Movilidad": 0,
    "Podotactil": 0,
    "Ind_magnetica": 0,
    "email": "idmretiro@madrid.es"
  },
  {
    "centros_id": "0023c",
    "Centro": "Centro Deportivo Municipal Fabián Roncero",
    "Direccion": "AVENIDA SEPTIMA 68, 28022 MADRID",
    "Latitud": 40.44965684114441,
    "Longitud": -3.597577201182505,
    "Telefono": "917 462 995",
    "Movilidad": 1,
    "Podotactil": 0,
    "Ind_magnetica": 0,
    "email": "recepcionfr@thinkingup.fitness"
  },
  {
    "centros_id": "0024c",
    "Centro": "Centro Deportivo Municipal Faustina Valladolid (antiguo Valdebernardo)",
    "Direccion": "CALLE LADERA DE LOS ALMENDROS 2, 28032 MADRID",
    "Latitud": 40.40418961057298,
    "Longitud": -3.622901144863193,
    "Telefono": "917 723 591",
    "Movilidad": 1,
    "Podotactil": 1,
    "Ind_magnetica": 1,
    "email": "idmvaldebernardo@madrid.es"
  },
  {
    "centros_id": "0025c",
    "Centro": "Centro Deportivo Municipal Fernando Martín",
    "Direccion": "AVENIDA SANTO ANGEL DE LA GUARDA 6, 28039 MADRID",
    "Latitud": 40.460935404623164,
    "Longitud": -3.7121918299288628,
    "Telefono": "914 507 344 - 914 505 530",
    "Movilidad": 1,
    "Podotactil": 0,
    "Ind_magnetica": 0,
    "email": "idmfmartin@madrid.es"
  },
  {
    "centros_id": "0026c",
    "Centro": "Centro Deportivo Municipal Francisco Fernández Ochoa",
    "Direccion": "CALLE CATORCE OLIVAS 1, 28054 MADRID",
    "Latitud": 40.36581776978113,
    "Longitud": -3.740893980533789,
    "Telefono": "915 883 623 \n915 883 731",
    "Movilidad": 1,
    "Podotactil": 0,
    "Ind_magnetica": 0,
    "email": "idmffochoa@madrid.es"
  },
  {
    "centros_id": "0027c",
    "Centro": "Centro Deportivo Municipal Francos Rodríguez",
    "Direccion": "CALLE NUMANCIA 11, 28039 MADRID",
    "Latitud": 40.45358753138912,
    "Longitud": -3.713093094582233,
    "Telefono": "914 599 871",
    "Movilidad": 0,
    "Podotactil": 0,
    "Ind_magnetica": 0,
    "email": "idmfrodriguez@madrid.es; idmfmartin@madrid.es"
  },
  {
    "centros_id": "0028c",
    "Centro": "Centro Deportivo Municipal Fuente del Berro",
    "Direccion": "CALLE ELVIRA 36, 28028 MADRID",
    "Latitud": 40.42171956854877,
    "Longitud": -3.6652515154670167,
    "Telefono": "915 881 369",
    "Movilidad": 1,
    "Podotactil": 0,
    "Ind_magnetica": 0,
    "email": "idmfuentedelberro@madrid.es"
  },
  {
    "centros_id": "0029c",
    "Centro": "Centro Deportivo Municipal Félix Rubio",
    "Direccion": "CALLE ALIANZA 4, 28041 MADRID",
    "Latitud": 40.357429678675295,
    "Longitud": -3.691528804696943,
    "Telefono": "913 180 435",
    "Movilidad": 1,
    "Podotactil": 0,
    "Ind_magnetica": 0,
    "email": "idmfrubio@madrid.es"
  },
  {
    "centros_id": "0030c",
    "Centro": "Centro Deportivo Municipal Gallur",
    "Direccion": "CALLE GALLUR 2, 28047 MADRID",
    "Latitud": 40.398465832065,
    "Longitud": -3.7353834506869217,
    "Telefono": "915 089 401\n915 251 059",
    "Movilidad": 1,
    "Podotactil": 0,
    "Ind_magnetica": 0,
    "email": "idmgallur@madrid.es"
  },
  {
    "centros_id": "0031c",
    "Centro": "Centro Deportivo Municipal Gimnasio Moscardó",
    "Direccion": "CALLE PILAR DE ZARAGOZA 93, 28028 MADRID",
    "Latitud": 40.437945289676996,
    "Longitud": -3.674502029997267,
    "Telefono": "913 553 201",
    "Movilidad": 1,
    "Podotactil": 0,
    "Ind_magnetica": 0,
    "email": "idmgmoscardo@madrid.es"
  },
  {
    "centros_id": "0032c",
    "Centro": "Centro Deportivo Municipal Hortaleza",
    "Direccion": "CARRETERA ESTACION DE HORTALEZA 11, 28033 MADRID",
    "Latitud": 40.4787279264401,
    "Longitud": -3.6527183525553006,
    "Telefono": "913 818 260 / 913 821 965 / 913821961",
    "Movilidad": 1,
    "Podotactil": 0,
    "Ind_magnetica": 0,
    "email": "idmhortaleza@madrid.es"
  },
  {
    "centros_id": "0033c",
    "Centro": "Centro Deportivo Municipal José María Cagigal",
    "Direccion": "CALLE SANTA POLA 22, 28008 MADRID",
    "Latitud": 40.43214955342785,
    "Longitud": -3.7369645992831364,
    "Telefono": 608268794,
    "Movilidad": 1,
    "Podotactil": 0,
    "Ind_magnetica": 0,
    "email": "idmjmcagigal@madrid.es"
  },
  {
    "centros_id": "0034c",
    "Centro": "Centro Deportivo Municipal Juan de Dios Román",
    "Direccion": "CALLE JOSE GUTIERREZ MAROTO 34, 28051 MADRID",
    "Latitud": 40.36391581480007,
    "Longitud": -3.60518607500416,
    "Telefono": "91 4801231",
    "Movilidad": 1,
    "Podotactil": 1,
    "Ind_magnetica": 0,
    "email": "idmjdroman@madrid.es"
  },
  {
    "centros_id": "0035c",
    "Centro": "Centro Deportivo Municipal La Almudena",
    "Direccion": "CALLE NICOLAS SALMERÓN 8, 28017 MADRID",
    "Latitud": 40.42060649869604,
    "Longitud": -3.6324237307227616,
    "Telefono": "915 882 355\n915 886 956",
    "Movilidad": 1,
    "Podotactil": 0,
    "Ind_magnetica": 0,
    "email": "idmalmudena@madrid.es"
  },
  {
    "centros_id": "0036c",
    "Centro": "Centro Deportivo Municipal La Bombilla",
    "Direccion": "CALLE SENDA DEL REY 8, 28040 MADRID",
    "Latitud": 40.43266791217288,
    "Longitud": -3.731947836490648,
    "Telefono": "917 588 677 - 915 592 090",
    "Movilidad": 1,
    "Podotactil": 0,
    "Ind_magnetica": 0,
    "email": "idmlabombilla@madrid.es"
  },
  {
    "centros_id": "0037c",
    "Centro": "Centro Deportivo Municipal La Chopera",
    "Direccion": "PASEO FERNAN NUÑEZ 3, 28009 MADRID",
    "Latitud": 40.41167030849678,
    "Longitud": -3.6856756521012146,
    "Telefono": "914 201 154",
    "Movilidad": 1,
    "Podotactil": 0,
    "Ind_magnetica": 0,
    "email": "idmlachopera@madrid.es"
  },
  {
    "centros_id": "0038c",
    "Centro": "Centro Deportivo Municipal La Elipa",
    "Direccion": "CALLE ALCALDE GARRIDO JUARISTI 17, 28030 MADRID",
    "Latitud": 40.41433123768487,
    "Longitud": -3.6559498758522833,
    "Telefono": "914 303 511",
    "Movilidad": 1,
    "Podotactil": 0,
    "Ind_magnetica": 0,
    "email": "idmlaelipa@madrid.es"
  },
  {
    "centros_id": "0039c",
    "Centro": "Centro Deportivo Municipal La Fundi",
    "Direccion": "CALLE ALICANTE 14, 28045 MADRID",
    "Latitud": 40.39437715885103,
    "Longitud": -3.691341060146108,
    "Telefono": "914 305 871 - Taquilla 915 288 879",
    "Movilidad": 1,
    "Podotactil": 0,
    "Ind_magnetica": 0,
    "email": "idmarganzuela@madrid.es - oficina promoción deportiva jdmarganzuela@madrid.es"
  },
  {
    "centros_id": "0040c",
    "Centro": "Centro Deportivo Municipal La Masó",
    "Direccion": "CALLE MASO 80, 28034 MADRID",
    "Latitud": 40.48442599932086,
    "Longitud": -3.7144222564719858,
    "Telefono": "917 397 555",
    "Movilidad": 1,
    "Podotactil": 1,
    "Ind_magnetica": 1,
    "email": "idmlamaso@madrid.es"
  },
  {
    "centros_id": "0041c",
    "Centro": "Centro Deportivo Municipal Lago Casa de Campo",
    "Direccion": "PASEO EMBARCADERO 8, 28011 MADRID",
    "Latitud": 40.417013097503705,
    "Longitud": -3.7314952685679943,
    "Telefono": "91 464 46 10",
    "Movilidad": 1,
    "Podotactil": 0,
    "Ind_magnetica": 0,
    "email": "idmlagocc@madrid.es"
  },
  {
    "centros_id": "0042c",
    "Centro": "Centro Deportivo Municipal Las Cruces",
    "Direccion": "AVENIDA POBLADOS 72, 28044 MADRID",
    "Latitud": 40.379148937377394,
    "Longitud": -3.756554762411969,
    "Telefono": "915 888 600",
    "Movilidad": 1,
    "Podotactil": 0,
    "Ind_magnetica": 0,
    "email": "idmlascruces@madrid.es"
  },
  {
    "centros_id": "0043c",
    "Centro": "Centro Deportivo Municipal Los Prunos",
    "Direccion": "CALLE PETUNIAS 30, 28042 MADRID",
    "Latitud": 40.453257453448046,
    "Longitud": -3.6186956428199863,
    "Telefono": "917 432 001",
    "Movilidad": 1,
    "Podotactil": 0,
    "Ind_magnetica": 0,
    "email": "aqa.prunos@gaiagd.net"
  },
  {
    "centros_id": "0044c",
    "Centro": "Centro Deportivo Municipal Luis Aragonés",
    "Direccion": "CALLE EL PROVENCIO 20, 28043 MADRID",
    "Latitud": 40.464650948053816,
    "Longitud": -3.6275877145025817,
    "Telefono": "913 003 612",
    "Movilidad": 1,
    "Podotactil": 1,
    "Ind_magnetica": 1,
    "email": "idmlaragones@madrid.es"
  },
  {
    "centros_id": "0045c",
    "Centro": "Centro Deportivo Municipal Margot Moles (Vicálvaro)",
    "Direccion": "PASEO POLIDEPORTIVO 3, 28032 MADRID",
    "Latitud": 40.40914061858403,
    "Longitud": -3.603264732850392,
    "Telefono": "917 769 874",
    "Movilidad": 1,
    "Podotactil": 0,
    "Ind_magnetica": 0,
    "email": "idmvicalvaro@madrid.es"
  },
  {
    "centros_id": "0046c",
    "Centro": "Centro Deportivo Municipal Marqués de Samaranch",
    "Direccion": "PASEO IMPERIAL 20, 28005 MADRID",
    "Latitud": 40.40761501410649,
    "Longitud": -3.7173807221939192,
    "Telefono": "914 220 344 - Taquilla 913 541 514",
    "Movilidad": 1,
    "Podotactil": 1,
    "Ind_magnetica": 1,
    "email": "idmmsamaranch@madrid.es"
  },
  {
    "centros_id": "0047c",
    "Centro": "Centro Deportivo Municipal Miguel Guillén Prim",
    "Direccion": "CALLE FUENTIDUEÑA 6, 28031 MADRID",
    "Latitud": 40.37381855452167,
    "Longitud": -3.623151468598157,
    "Telefono": "913 053 451",
    "Movilidad": 0,
    "Podotactil": 0,
    "Ind_magnetica": 0,
    "email": "idmmguillen@madrid.es"
  },
  {
    "centros_id": "0048c",
    "Centro": "Centro Deportivo Municipal Moratalaz",
    "Direccion": "CALLE VALDEBERNARDO 2, 28030 MADRID",
    "Latitud": 40.39885854572339,
    "Longitud": -3.632432290214539,
    "Telefono": "917 727 100                                                                                                                                     \n- 917 727 121                                            \n- Verano: 914 801 853",
    "Movilidad": 1,
    "Podotactil": 0,
    "Ind_magnetica": 0,
    "email": "idmmoratalaz@madrid.es"
  },
  {
    "centros_id": "0049c",
    "Centro": "Centro Deportivo Municipal Moscardó",
    "Direccion": "CALLE ANDRES ARTEAGA 5, 28026 MADRID",
    "Latitud": 40.38850290426967,
    "Longitud": -3.706303079808029,
    "Telefono": "915 003 940",
    "Movilidad": 1,
    "Podotactil": 0,
    "Ind_magnetica": 0,
    "email": "cdmmoscardo@clubnatacionmadrid.es"
  },
  {
    "centros_id": "0050c",
    "Centro": "Centro Deportivo Municipal Orcasitas",
    "Direccion": "AVENIDA RAFAELA YBARRA 52, 28026 MADRID",
    "Latitud": 40.37558213858424,
    "Longitud": -3.71245854352948,
    "Telefono": "914 692 374",
    "Movilidad": 0,
    "Podotactil": 1,
    "Ind_magnetica": 1,
    "email": "idmorcasitas@madrid.es"
  },
  {
    "centros_id": "0051c",
    "Centro": "Centro Deportivo Municipal Orcasur",
    "Direccion": "CALLE MOREJA 11, 28041 MADRID",
    "Latitud": 40.37021993373859,
    "Longitud": -3.6994689006077444,
    "Telefono": "913 171 062",
    "Movilidad": 1,
    "Podotactil": 0,
    "Ind_magnetica": 0,
    "email": "idmorcasur@madrid.es"
  },
  {
    "centros_id": "0052c",
    "Centro": "Centro Deportivo Municipal Pabellón Villa de Madrid",
    "Direccion": "CALLE BREZOS 6, 28042 MADRID",
    "Latitud": 40.46145708324958,
    "Longitud": -3.5891069291726105,
    "Telefono": "913 294 219 (CDM  Barajas)",
    "Movilidad": 0,
    "Podotactil": 0,
    "Ind_magnetica": 0,
    "email": "idmbarajas@madrid.es"
  },
  {
    "centros_id": "0053c",
    "Centro": "Centro Deportivo Municipal Palomeras",
    "Direccion": "CALLE TRANVIA DE ARGANDA 4, 28031 MADRID",
    "Latitud": 40.38260362230282,
    "Longitud": -3.6337151808372496,
    "Telefono": "917 774 901",
    "Movilidad": 1,
    "Podotactil": 0,
    "Ind_magnetica": 0,
    "email": "idmpalomeras@madrid.es"
  },
  {
    "centros_id": "0054c",
    "Centro": "Centro Deportivo Municipal Pepu Hernández",
    "Direccion": "AVENIDA NIZA 8, 28022 MADRID",
    "Latitud": 40.42763842661562,
    "Longitud": -3.606311072744069,
    "Telefono": "917 755 866",
    "Movilidad": 1,
    "Podotactil": 0,
    "Ind_magnetica": 0,
    "email": "pepuhernandez@serviocio.es"
  },
  {
    "centros_id": "0055c",
    "Centro": "Centro Deportivo Municipal Peñagrande",
    "Direccion": "AVENIDA MONFORTE DE LEMOS 184, 28035 MADRID",
    "Latitud": 40.476792184653526,
    "Longitud": -3.717566523014736,
    "Telefono": "911 332 488",
    "Movilidad": 1,
    "Podotactil": 0,
    "Ind_magnetica": 0,
    "email": "fuencarral@go-fit.es"
  },
  {
    "centros_id": "0056c",
    "Centro": "Centro Deportivo Municipal Peñuelas",
    "Direccion": "CALLE ARGANDA 25, 28005 MADRID",
    "Latitud": 40.39865532340664,
    "Longitud": -3.704959759845779,
    "Telefono": "Taquilla: 915883465\nOficina: 917791215",
    "Movilidad": 1,
    "Podotactil": 0,
    "Ind_magnetica": 0,
    "email": "idmpenuelas@madrid.es; idmarganzuela@madrid.es"
  },
  {
    "centros_id": "0057c",
    "Centro": "Centro Deportivo Municipal Plata y Castañar",
    "Direccion": "PASEO PLATA Y CASTAÑAR 7, 28021 MADRID",
    "Latitud": 40.34998997348078,
    "Longitud": -3.7178413073202856,
    "Telefono": "915 051 532                                                                 \n915 051 195",
    "Movilidad": 1,
    "Podotactil": 0,
    "Ind_magnetica": 0,
    "email": "idmpcastanar@madrid.es"
  },
  {
    "centros_id": "0058c",
    "Centro": "Centro Deportivo Municipal Playa Victoria",
    "Direccion": "CALLE HIERBABUENA 2, 28039 MADRID",
    "Latitud": 40.4592763472204,
    "Longitud": -3.7021136988422567,
    "Telefono": "915 701 841",
    "Movilidad": 1,
    "Podotactil": 0,
    "Ind_magnetica": 0,
    "email": "idmpvictoria@madrid.es"
  },
  {
    "centros_id": "0059c",
    "Centro": "Centro Deportivo Municipal Pradillo",
    "Direccion": "CALLE PRADILLO 33, 28002 MADRID",
    "Latitud": 40.44910622626739,
    "Longitud": -3.671618277009419,
    "Telefono": "914 137 105",
    "Movilidad": 1,
    "Podotactil": 1,
    "Ind_magnetica": 1,
    "email": "idmpradillo@madrid.es"
  },
  {
    "centros_id": "0060c",
    "Centro": "Centro Deportivo Municipal Pueblo Nuevo",
    "Direccion": "CALLE FRANCISCO RIOJA 14, 28017 MADRID",
    "Latitud": 40.43003240158625,
    "Longitud": -3.638536354805483,
    "Telefono": "913 770 251",
    "Movilidad": 1,
    "Podotactil": 0,
    "Ind_magnetica": 0,
    "email": "No consta"
  },
  {
    "centros_id": "0061c",
    "Centro": "Centro Deportivo Municipal Raúl González",
    "Direccion": "CALLE BENIMAMET 137, 28021 MADRID",
    "Latitud": 40.346220026067044,
    "Longitud": -3.684337728806363,
    "Telefono": "917 953 792",
    "Movilidad": 1,
    "Podotactil": 0,
    "Ind_magnetica": 0,
    "email": "idmrgonzalez@madrid.es"
  },
  {
    "centros_id": "0062c",
    "Centro": "Centro Deportivo Municipal San Blas",
    "Direccion": "CALLE ARCOS DE JALON 59, 28037 MADRID",
    "Latitud": 40.428810107016545,
    "Longitud": -3.6113273589762334,
    "Telefono": "913 209 818",
    "Movilidad": 1,
    "Podotactil": 0,
    "Ind_magnetica": 0,
    "email": "idmsanblas@madrid.es"
  },
  {
    "centros_id": "0063c",
    "Centro": "Centro Deportivo Municipal San Cristóbal",
    "Direccion": "PLAZA PINAZO 9, 28021 MADRID",
    "Latitud": 40.34267317099495,
    "Longitud": -3.6914487380508842,
    "Telefono": "917 950 911",
    "Movilidad": 1,
    "Podotactil": 0,
    "Ind_magnetica": 0,
    "email": "idmsancristobal@madrid.es"
  },
  {
    "centros_id": "0064c",
    "Centro": "Centro Deportivo Municipal San Fermín",
    "Direccion": "CALLE SAN MARIO 18, 28041 MADRID",
    "Latitud": 40.37530577421291,
    "Longitud": -3.6927010241442946,
    "Telefono": "917 922 102",
    "Movilidad": 1,
    "Podotactil": 0,
    "Ind_magnetica": 0,
    "email": "idmsanfermin@madrid.es"
  },
  {
    "centros_id": "0065c",
    "Centro": "Centro Deportivo Municipal San Juan Bautista",
    "Direccion": "CALLE TREVIANA 1, 28043 MADRID",
    "Latitud": 40.44864976316054,
    "Longitud": -3.6585711797466836,
    "Telefono": "914 164 259",
    "Movilidad": 1,
    "Podotactil": 0,
    "Ind_magnetica": 0,
    "email": "idmsjbautista@madrid.es"
  },
  {
    "centros_id": "0066c",
    "Centro": "Centro Deportivo Municipal Santa Ana",
    "Direccion": "PASEO ALAMEDILLAS 5, 28034 MADRID",
    "Latitud": 40.49809469315447,
    "Longitud": -3.696358010199944,
    "Telefono": "913 721 138",
    "Movilidad": 0,
    "Podotactil": 0,
    "Ind_magnetica": 0,
    "email": "idmsantaana@madrid.es"
  },
  {
    "centros_id": "0067c",
    "Centro": "Centro Deportivo Municipal Tenis Casa de Campo",
    "Direccion": "CAMINO PRINCIPE 2, 28011 MADRID",
    "Latitud": 40.421436625700565,
    "Longitud": -3.735739625664774,
    "Telefono": "914 649 617",
    "Movilidad": 1,
    "Podotactil": 0,
    "Ind_magnetica": 0,
    "email": "idmteniscc@madrid.es"
  },
  {
    "centros_id": "0068c",
    "Centro": "Centro Deportivo Municipal Triángulo de Oro",
    "Direccion": "CALLE BRAVO MURILLO 376, 28020 MADRID",
    "Latitud": 40.46512519238624,
    "Longitud": -3.6928208378255807,
    "Telefono": "915 714 117",
    "Movilidad": 1,
    "Podotactil": 0,
    "Ind_magnetica": 0,
    "email": "idmtoro@madrid.es"
  },
  {
    "centros_id": "0069c",
    "Centro": "Centro Deportivo Municipal Vallecas",
    "Direccion": "CALLE ARROYO DEL OLIVAR 51, 28018 MADRID",
    "Latitud": 40.390368919782446,
    "Longitud": -3.657213682860775,
    "Telefono": "91 513 36 23",
    "Movilidad": 1,
    "Podotactil": 0,
    "Ind_magnetica": 0,
    "email": "idmvallecas@madrid.es"
  },
  {
    "centros_id": "0070c",
    "Centro": "Centro Deportivo Municipal Vallehermoso",
    "Direccion": "AVENIDA FILIPINAS 7, 28003 MADRID",
    "Latitud": 40.44064843863945,
    "Longitud": -3.709053489027435,
    "Telefono": "915 902 959",
    "Movilidad": 1,
    "Podotactil": 0,
    "Ind_magnetica": 0,
    "email": "vallehermoso@go-fit.es"
  },
  {
    "centros_id": "0071c",
    "Centro": "Centro Deportivo Municipal Vicente del Bosque",
    "Direccion": "AVENIDA MONFORTE DE LEMOS 13, 28029 MADRID",
    "Latitud": 40.4789135943213,
    "Longitud": -3.693540659747283,
    "Telefono": 917767502,
    "Movilidad": 1,
    "Podotactil": 0,
    "Ind_magnetica": 0,
    "email": "idmbpilar@madrid.es"
  },
  {
    "centros_id": "0072c",
    "Centro": "Centro Deportivo Municipal Wilfred Agbonavbare (antiguo Alberto García)",
    "Direccion": "CALLE REGUERA DE TOMATEROS, 39B , 28053 MADRID",
    "Latitud": 40.372421418063425,
    "Longitud": -3.6574515621755173,
    "Telefono": "917 854 751",
    "Movilidad": 1,
    "Podotactil": 0,
    "Ind_magnetica": 0,
    "email": "idmagarcia@madrid.es"
  },
  {
    "centros_id": "0073c",
    "Centro": "Centro Deportivo Municipal Ángel Nieto (antiguo Puente de Vallecas)",
    "Direccion": "CALLE PAYASO FOFO 7, 28018 MADRID",
    "Latitud": 40.39146194707861,
    "Longitud": -3.6598636029775866,
    "Telefono": "914 781 492",
    "Movilidad": 1,
    "Podotactil": 0,
    "Ind_magnetica": 0,
    "email": "idmpvallecas@madrid.es"
  },
  {
    "centros_id": "0074c",
    "Centro": "Estadio Vallehermoso (centro deportivo)",
    "Direccion": "AVENIDA FILIPINAS 7, 28003",
    "Latitud": 40.44063826273849,
    "Longitud": -3.7090268576934533,
    "Telefono": "914 804 751",
    "Movilidad": 1,
    "Podotactil": 1,
    "Ind_magnetica": 1,
    "email": "estadiovallehermoso@madrid.es"
  },
  {
    "centros_id": "0075c",
    "Centro": "Instalación Deportiva Municipal Básica Parque de la Vicalvarada (centro deportivo)",
    "Direccion": "CALLE VEREDA DEL PINAR 1, 28032 MADRID",
    "Latitud": 40.41079351896063,
    "Longitud": -3.607616723630345,
    "Telefono": 0,
    "Movilidad": 0,
    "Podotactil": 0,
    "Ind_magnetica": 0,
    "email": "No consta"
  },
  {
    "centros_id": "0076c",
    "Centro": "Instalación Deportiva Municipal Básica Torrespaña - Fuente del Berro (centro deportivo)",
    "Direccion": "CALLE NUDO M-30 C/V ALCALDE SAINZ DE BARANDA 94, 28007 MADRID",
    "Latitud": 40.42129422167342,
    "Longitud": -3.6608740643380497,
    "Telefono": 0,
    "Movilidad": 0,
    "Podotactil": 0,
    "Ind_magnetica": 0,
    "email": "No consta"
  },
  {
    "centros_id": "0077c",
    "Centro": "Instalación Deportiva Municipal Básica Victoria Hernández (El Espinillo II - centro deportivo)",
    "Direccion": "CALLE CONSENSO 5, 28041 MADRID",
    "Latitud": 40.36060552171134,
    "Longitud": -3.686214416479886,
    "Telefono": "913 180 857",
    "Movilidad": 0,
    "Podotactil": 0,
    "Ind_magnetica": 0,
    "email": "idmespinillo2@madrid.es"
  }
]